{"type":"FeatureCollection","features":[{"type":"Feature","properties":{"id":5,"date":"1700-08-29","location":"S. Agostino di Sopra (contado)","weapon":"rolling pin","conviction":"Y in contumacia - ten years in galleys/ jail (galera can be either)","description":"a man, his famiglia and his garzone are rolling hemp; they are joined by Santo Malservisi, who  borrows a rolling pin from a \"putta\" and starts to help; the garzone and he get into a contest/argument over a plant; (I think the Garzone hits first) Malservisi hits the Garzone over the head and he falls to the ground, where Malservisi hits him over the head four more times \"with great breaking\""},"geometry":{"type":"Point","coordinates":[11.366664647553536,44.8022531925568]}},{"type":"Feature","properties":{"id":6,"date":"1700-09-12","location":"Venezzano (contado)","weapon":"knife","conviction":"Y - bandito in contumacia, capitale if found, and body parts placed on the walls if found","description":"priest eating dinner when his servant stabbed him in the head repeatedly and robbed him"},"geometry":{"type":"Point","coordinates":[11.32944007023289,44.6864200948304]}},{"type":"Feature","properties":{"id":12,"date":"1700-06-26","location":"Pizzicalvo (contado)","weapon":"knife","conviction":"Y - pena della vita","description":"victim returning from mill with a cart-load of flour when he was stabbed on the bridge d'Idie(?)"},"geometry":{"type":"Point","coordinates":[11.404314323104998,44.4298941280885]}},{"type":"Feature","properties":{"id":13,"date":"1700-07-10","location":"Castel Bolognese Biancanego (contado)","weapon":"club","conviction":"Y carcerato","description":"massaro called by T.G. to the fornaro where he found Carlo bleeding from the face, unable to speak and dying; witness reports that Isidoro hit the kid while he was sleeping in the doorway"},"geometry":{"type":"Point","coordinates":[11.795415296726034,44.3218055262926]}},{"type":"Feature","properties":{"id":14,"date":"1700-06-24","location":"Capugnano (contado)","weapon":"gun","conviction":"Y - perpetual galleys","description":"fight begins in bar over drinks and food; is broken up by companions. On the way to work afterwards, antagonists kill one of the peacemakers with gun and dagger"},"geometry":{"type":"Point","coordinates":[10.951735058041477,44.1574504729781]}},{"type":"Feature","properties":{"id":15,"date":"1700-10-16","location":"Crespellano S. Martino in Casola (contado)","weapon":"club","conviction":"Y - 10 yrs galley","description":"victim found stealing grapes from Monks of S. Gio Batta in field of  Cristoforo Monansi; C's garzone Gioseffo bashes his head in; victim died later that night"},"geometry":{"type":"Point","coordinates":[11.152324834887642,44.4869111045362]}},{"type":"Feature","properties":{"id":16,"date":"1700-05-15","location":"Casalecchio di Reno (contado)","weapon":"arquebus","conviction":"Y - perpetual triremes","description":"Dom.co comes across Cristoforo and thinks C. stole from him, so shot him"},"geometry":{"type":"Point","coordinates":[11.286529002719057,44.4865562276535]}},{"type":"Feature","properties":{"id":21,"date":"1700-09-07","location":"Calcara (contado)","weapon":"gun","conviction":"N - absolved for accident","description":"slayer cleaning his schioppo which he thinks is empty; it goes off and kills his sister"},"geometry":{"type":"Point","coordinates":[11.13263975478613,44.5476972924638]}},{"type":"Feature","properties":{"id":39,"date":"1690-10-11","location":"S. Lorenzo in Collina (contado)","weapon":"archibugio","conviction":"Y - pena di vita","description":"victim was out looking at grapes and other fruits, and on his way home passed by the \"court\" of S.r Francesco, who, with Giuseppe, shot Emilio with archibus"},"geometry":{"type":"Point","coordinates":[11.16660914668965,44.4682319223047]}},{"type":"Feature","properties":{"id":42,"date":"1690-09-24","location":"Poggio de Rossi (contado)","weapon":"archibugio","conviction":"Y- galera in perpetuam","description":"victim had quarreled with slayer in April(?) and left town for fear of life; returned five months later thinking to be safe, killed that night"},"geometry":{"type":"Point","coordinates":[11.224765276027822,44.4838602051398]}},{"type":"Feature","properties":{"id":45,"date":"1690-09-03","location":"Zola Predosa (contado)","weapon":"knife","conviction":"Y - triremes perpetualis","description":"injury with later death"},"geometry":{"type":"Point","coordinates":[11.220801923507471,44.4915884380001]}},{"type":"Feature","properties":{"id":48,"date":"1690-09-23","location":"Manzolini (contado)","weapon":"club","conviction":"Y - pena furca","description":"victim attacked at night and couldn't say who it was, but had argued with Giuseffo a few days earlier and G. had said he would break his bones of life"},"geometry":{"type":"Point","coordinates":[11.349927122809133,44.5312432385233]}},{"type":"Feature","properties":{"id":53,"date":"1690-09-15","location":"S.Agostino di Soto (contado)","weapon":"scythe","conviction":"Y- cond in pena ultima supplici - victim fled to Modenese","description":"Giovanna and Giuseppe go to the country to feed the cows, and do not return. The \"regidora\"(?) goes to look for them, and finds Giovanna with her throat cut under a ladder beneath a tree, and Giuseffo nowhere to be found"},"geometry":{"type":"Point","coordinates":[11.486397279598288,44.866780189631]}},{"type":"Feature","properties":{"id":61,"date":"1690-06-03","location":"Monzone (contado)","weapon":"gun and knife","conviction":"Y- pena di vita","description":"an argument breaks out in the market over two cows, a gunfight ensues"},"geometry":{"type":"Point","coordinates":[10.78717965589924,44.3275984482755]}},{"type":"Feature","properties":{"id":62,"date":"1690-06-16","location":"St Agata (contado)","weapon":"gun","conviction":"Y - Antonio triremes perpetualis, Domenico triremes decennium annis","description":"victim was in the courtyard of Leandra Sansolli when the brother Zambelli arrived and shot him"},"geometry":{"type":"Point","coordinates":[11.124188013844526,44.6789487400343]}},{"type":"Feature","properties":{"id":63,"date":"1690-04-26","location":"Poggio de Rossi (contado)","weapon":"knife","conviction":"Y - Pietro in trireme perpetuum","description":"returning from mass, Gabriele arrived at the stairs leading to Pietro's door, and Pietro shot at him with an archibus, then came at him with a knife; Arcangelo comes to help him and Pietro stabs hm in the \"left tit\"; Arcangelo dies later"},"geometry":{"type":"Point","coordinates":[11.177426609981797,44.461640540643195]}},{"type":"Feature","properties":{"id":66,"date":"1690-01-15","location":"Mongiorgi, villa di Ponzano (contado)","weapon":"gun","conviction":"N - memorials from family. accident.","description":"giovanni is playing with a schioppo in the yard, and when his cousin goes out to tend sheep, he pretends to fire it, except it fires and kills Giacomo"},"geometry":{"type":"Point","coordinates":[11.093144604772442,44.4123237892089]}},{"type":"Feature","properties":{"id":68,"date":"1690-02-06","location":"Minerbio (contado)","weapon":"carnival float","conviction":"N - absolvit omnes; pace fatta dalla famiglia","description":"carnival: Francesco and Girolamo made a float for carnival and brought it into the street and accidentally run over 8-year-old Girolamo"},"geometry":{"type":"Point","coordinates":[11.476159037400857,44.6172519727564]}},{"type":"Feature","properties":{"id":70,"date":"1690-03-06","location":"Bagnarola (contado)","weapon":"knife","conviction":"Y - Pietro in pena ultimi supplici; Lazaro in triremis septennius","description":"Elizabeth has her throat cut while in bed; I think they mutilated her chest as well"},"geometry":{"type":"Point","coordinates":[11.481362760409692,44.5661382388089]}},{"type":"Feature","properties":{"id":71,"date":"1690-03-20","location":"Casale Fiuminese (contado)","weapon":"saw","conviction":"Y- triremis perpetualis","description":"argument starts during gambling, is finished later in the field near the mill; DOmenico and his brother beat Bartolomeo close to death, he dies later that night"},"geometry":{"type":"Point","coordinates":[11.621877619864822,44.2975836733525]}},{"type":"Feature","properties":{"id":75,"date":"1690-04-27","location":"Vedriano (contado)","weapon":"gun","conviction":"Y - in pena furcam","description":"Gio Rambaldi has just returned to his house with a lantern in his hand when he is shot four times by unknown persons, from behind a wall in his courtyard"},"geometry":{"type":"Point","coordinates":[11.515462740049578,44.3653210117904]}},{"type":"Feature","properties":{"id":81,"date":"1690-08-30","location":"Barisella (contado) - publica strada fra Minerbio e Barisella","weapon":"knife","conviction":"Y - pena vita","description":"victim found dead in road with many wounds to the head"},"geometry":{"type":"Point","coordinates":[11.542851566184586,44.6511274309005]}},{"type":"Feature","properties":{"id":82,"date":"1690-08-16","location":"Crovare, Belli e Imola (contado) - homicidio seguito in Imola","weapon":"gun","conviction":"abs because Gioseppe died.","description":"the Nanni (father, sons and cousin) go to Imola to kill Francesco due to a long hatred; in defending himself, Francesco also kills Giuseppe Nanni."},"geometry":{"type":"Point","coordinates":[11.713173966666233,44.3533909481069]}},{"type":"Feature","properties":{"id":85,"date":"1680-11-07","location":"Budrio (contado) Osteria di Gio Antonio","weapon":"archibugio","conviction":"Y- Pena di vita","description":"ministrale reports an awesome raid on sanctuary - two killers refuge in oratory of the Borgo church, and the Tenente and his sbirro lead a raid to flush them out and arrest them - two sbirri shot, one dies?."},"geometry":{"type":"Point","coordinates":[11.532912742196736,44.5388196677245]}},{"type":"Feature","properties":{"id":86,"date":"1680-12-09","location":"Bazzano (contado)","weapon":"archibugio","conviction":"I think absolved","description":"monday morning the body is found; Massaro discovers his identity; Matteo's wife says he got up early Saturday (Sunday?) morning, dressed in the dark, and left without telling her why; never came back"},"geometry":{"type":"Point","coordinates":[11.079219411659126,44.5038245803837]}},{"type":"Feature","properties":{"id":88,"date":"1680-09-07","location":"Frasineto (contado)","weapon":"tagliente - guy is \"all bloody, especially around the head\" pugnale","conviction":"N - unsolved mystery","description":"when Giovani doesn't return from market his relatives fear some injury; Carlo Chiunioli goes to find him and finds him dead"},"geometry":{"type":"Point","coordinates":[11.49824261597356,44.3460806086355]}},{"type":"Feature","properties":{"id":90,"date":"1680-09-16","location":"Castel Bolognese (contado)","weapon":"gun","conviction":"Y - pena furcam Carlo","description":"Paolo et amici are walking past the bridge that leads to C. Bolognese when the brothers Morini (\"che veniva dal Contrabando\") jump out and shoot Paolo who is injured"},"geometry":{"type":"Point","coordinates":[11.801766608098731,44.3207015543291]}},{"type":"Feature","properties":{"id":91,"date":"1680-10-27","location":"Zapolino (contado)","weapon":"gun","conviction":"N - absolvit per pace ottenuto","description":"on the way to mass, Domenico pulls his dagger and knifes Francesco to death"},"geometry":{"type":"Point","coordinates":[11.10984751339729,44.4351452336248]}},{"type":"Feature","properties":{"id":92,"date":"1680-11-11","location":"Crevalcore (contado)","weapon":"gun","conviction":"N - accidental death caused by stupidity","description":"body recognitio - young Bartolomeo Fregni is out in the fields and shoots himself in the \"collo di piede destra\" - is this in the shoulder or the foot?"},"geometry":{"type":"Point","coordinates":[11.143483010162065,44.7206557376975]}},{"type":"Feature","properties":{"id":97,"date":"1680-08-18","location":"Budrio (contado)","weapon":"fight","conviction":"Y - ostante pace gratiatus","description":"little brothers are hanging out in a field when older brother Anibale shows up, cuffs Girolamo in the head and the kicks him in the stomach, Girolamo runs a little ways away, and somehow dies?"},"geometry":{"type":"Point","coordinates":[11.530165992328865,44.5371049784427]}},{"type":"Feature","properties":{"id":99,"date":"1680-08-03","location":"Roncho di Crevalcore (contado)","weapon":"gun","conviction":"Y - pena furcam in contumatia, memorial written after condemnation","description":"two witnesses come to the massaro around 11:00 and report hearing three archebus shots, fired by Giovanni Poluzzi, and that Benedetto was killed by the shots."},"geometry":{"type":"Point","coordinates":[11.139292316392352,44.7560439750577]}},{"type":"Feature","properties":{"id":101,"date":"1680-08-03","location":"Gaibola e Sabbine di Montagna (contado)","weapon":"sickle","conviction":"N","description":"Battista is on his way to market with some livestock, and stops briefly in Sabbione where he puts them in Anibale's stall; Anibale asks what are you looking for in my stall, Battista is belligerent and threatens him, and Anibale hits him with a sickle"},"geometry":{"type":"Point","coordinates":[11.319552853747906,44.4690072795082]}},{"type":"Feature","properties":{"id":104,"date":"1680-08-24","location":"Musiano (contado)","weapon":"gun","conviction":"Y - triremes septennium","description":"late at night, killers bang on victim's door saying they want to come in and eat and drink; Baldasare responds saying he doesn't feed people at this hour, they break the door down and shoot him in the knee"},"geometry":{"type":"Point","coordinates":[11.34545128631214,44.3993101868655]}},{"type":"Feature","properties":{"id":107,"date":"1680-08-17","location":"Monzone (contado)","weapon":"gun","conviction":"Y- Antonio Maria and Francesco Maria to triremes perpetuam","description":"Angelo Fabri and Francesco Benni get into a fistfight, and both go for their guns, and Angelo is killed"},"geometry":{"type":"Point","coordinates":[10.78881044687385,44.3273451423088]}},{"type":"Feature","properties":{"id":117,"date":"1680-08-18","location":"Cassano e Castel Novo di Bisano (contado)","weapon":"gun","conviction":"Y - pena ultima","description":"Gio Giacomo shoots Giovanni in the stomach; Gio Giac was hiding behind a Quercia waiting for Giovanni to go by - premeditated"},"geometry":{"type":"Point","coordinates":[11.404194883379748,44.2900090086355]}},{"type":"Feature","properties":{"id":119,"date":"1680-07-14","location":"Manzolino (contado)","weapon":"club","conviction":"Y - vincenzo in Pena della vita","description":"victim and slayer get in an argument and begin hitting each other with bastone; Vincenzo knocks Camillo into a well, gives him two more whacks and leaves; victim dies two hours later"},"geometry":{"type":"Point","coordinates":[11.130691662109516,44.6137316212313]}},{"type":"Feature","properties":{"id":129,"date":"1680-03-06","location":"Castello Bolognese (contado) Villa di Serra","weapon":"gun","conviction":"Y - pena furcam et confiscatione bonum","description":"Giovanni Shoots Lorenzo in the chest, takes his gun, and tosses it in a nearby well"},"geometry":{"type":"Point","coordinates":[11.801766608098731,44.3207015543291]}},{"type":"Feature","properties":{"id":131,"date":"1680-05-04","location":"Villa Fontana e Budrio (contado) quartiere della Pianella","weapon":"knife","conviction":"Y - Giuseffe triremis decennius, Diamante in pena publica fustigatis (flogging?)","description":"Cesare and Giuseppe get in an argument on market day April 30, and as they are wrestling Diamante whacked Cesare on the head with (??) and then Giuseffe slices him with a falcinella, and then hits him in the shoulder with a big rock"},"geometry":{"type":"Point","coordinates":[11.530165992328865,44.5371049784427]}},{"type":"Feature","properties":{"id":132,"date":"1680-06-23","location":"Anzola (contado)","weapon":"gun","conviction":"Y - triremis decennius, et refectionis ora damnus et interesse partis offense","description":"argument between slayer and victim"},"geometry":{"type":"Point","coordinates":[11.197726568489635,44.5463201126643]}},{"type":"Feature","properties":{"id":134,"date":"1680-09-01","location":"S. Donnino (contado)","weapon":"gun","conviction":"N - accident","description":"little girl goes to her neighbour to borrow some soup, and his schioppo accidentally fires while he is cleaning it."},"geometry":{"type":"Point","coordinates":[11.324937654541978,44.6698647764515]}},{"type":"Feature","properties":{"id":135,"date":"1680-02-17","location":"Rastignano (contado)","weapon":"gun","conviction":"Y - pena di vita","description":"Giovan was walking from Santo Raffaelle past the church and was shot"},"geometry":{"type":"Point","coordinates":[11.350637083612082,44.42313027887]}},{"type":"Feature","properties":{"id":138,"date":"1680-03-19","location":"San VIncenzo (contado)","weapon":"club","conviction":"Y - pena furcam","description":"Pietro tries to sell a cow to Antonio Magni, victim's dad, who refuses; as Pietro is taking the cow away he sees Antonio's sons Dom.co and Gio.ni, and begins insulting them and yelling at them; Domenico yells back, and Pietro beats him with a bastone; Dom dies two hours later"},"geometry":{"type":"Point","coordinates":[11.440877292835522,44.7377791679979]}},{"type":"Feature","properties":{"id":145,"date":"1670-04-27","location":"Ponte di Saveno (contado)","weapon":"short sword","conviction":"Y- Zachinolani and Ravasini ad triremis perpetuus","description":"Massaro reports homicide and that publica voce says it was the paesani soldati; goes to look at the body which has many sword wounds; victim was with a companion, who \"fa il limonato in Bologna nella piazza\", who was injured in the hand;  Marc Antonio and his two companions were on their way back to Bologna after eating a salad at on osteria, when they saw an armed gang; the gang leader says \"what are you looking at, fucked billygoats?\" and Marc Antonio says \"you guys are the billygoats\" and they fall on his with swords and arme bianche"},"geometry":{"type":"Point","coordinates":[11.368065519246842,44.4552044080611]}},{"type":"Feature","properties":{"id":150,"date":"1670-08-17","location":"Zola Predosa (contado)","weapon":"gun","conviction":"Y - Cristoforo in triremis perpetuus","description":"slayers were hunting in Pepoli's grounds, and Pepoli's gardener and two socii went after them; when they cornered the slayers under a tree, Cristoforo shot the gardener in the head"},"geometry":{"type":"Point","coordinates":[11.220801923507471,44.4915884380001]}},{"type":"Feature","properties":{"id":151,"date":"1670-09-14","location":"Bisano e Castel Novo (contado)","weapon":"gun","conviction":"Y","description":"victim found dead on Sattini's property - Tommaso shot him for trespassing"},"geometry":{"type":"Point","coordinates":[11.3892706450493,44.2735967232696]}},{"type":"Feature","properties":{"id":155,"date":"1670-11-09","location":"S Donino (contado)","weapon":"gun","conviction":"N - absolvit","description":"massaro reports that Giuseffe shot himself with his archibus; Carlo says GIuseffe was trying to jump a ditch when the gun went off, blowing off his finger and hitting him in the collar, near the throat"},"geometry":{"type":"Point","coordinates":[11.324937654541978,44.6698647764515]}},{"type":"Feature","properties":{"id":157,"date":"1670-10-25","location":"Venezzano (contado)","weapon":"gun","conviction":"Y - pena triremis perpetuus","description":"the two meet at night in the street and Rudolfo shoots Pietro"},"geometry":{"type":"Point","coordinates":[11.32944007023289,44.6864200948304]}},{"type":"Feature","properties":{"id":158,"date":"1670-08-03","location":"Castel San Pietro (contado)","weapon":"gun","conviction":"Y - pena vita","description":"gunshots during Mass"},"geometry":{"type":"Point","coordinates":[11.488562766050862,44.4178789454045]}},{"type":"Feature","properties":{"id":163,"date":"1670-04-14","location":"Medicina (contado)","weapon":"archibugio","conviction":"Y - Baldassare triremis perpetuus; Francesco in exilio status Ferrarius","description":"while Bartholomeo was in the market outside Medicine, he was shot and killed by an archebus. Francesco was arguing with Baldissera over a \"Vettura di Semaro\"(?) ; they are all three salt smugglers. According to Bart's brother, Bart arrived to break up the fight when guns were drawn, and  Baldissera shot him while trying to shoot Francesco. Witness confirms."},"geometry":{"type":"Point","coordinates":[11.64043735404894,44.4775222762096]}},{"type":"Feature","properties":{"id":165,"date":"1670-09-28","location":"Mongardino e Malfolle (contado)","weapon":"archibugio","conviction":"Y - pena vita all of them","description":"while the Sbirri di Montagna were patrolling towards Mongardino, near the house of Gio Batt.a Benvenuti, they were suddenly shot at  by multiple gunshots, and one sbirro was killed"},"geometry":{"type":"Point","coordinates":[11.15965568690186,44.325917010356]}},{"type":"Feature","properties":{"id":166,"date":"1670-07-20","location":"Crevalcore e Modena (Contado) via della guisa","weapon":"archibugio","conviction":"Y - carceratus","description":"Massaro hears public word that a Modenese has been killed just outside of Crevalcore; he rings the bell and gathers il populo and goes to check it out; he also hears that the Modenese was killed by other Modenesi"},"geometry":{"type":"Point","coordinates":[11.143483010162065,44.7206557376975]}},{"type":"Feature","properties":{"id":170,"date":"1670-07-20","location":"Zappolino (contado)","weapon":"archibugio","conviction":"N","description":"Ercole on his way to Procession of the Carmine in Ponzano, and in the street outside the Chiesa di Zappolino he is shot twice"},"geometry":{"type":"Point","coordinates":[11.10984751339729,44.4351452336248]}},{"type":"Feature","properties":{"id":171,"date":"1670-05-28","location":"Medicina (contado)","weapon":"archibugio","conviction":"N - absolvit, fid.it","description":"victim shot at night after barging into slayer's home and trying to kill the father"},"geometry":{"type":"Point","coordinates":[11.64043735404894,44.4775222762096]}},{"type":"Feature","properties":{"id":173,"date":"1670-12-28","location":"Cassano (contado)","weapon":"archibugio","conviction":"Y","description":"victim shot after mass; Massaro says the two had argued the night before. I think he also arrested the victim"},"geometry":{"type":"Point","coordinates":[11.414761876606796,44.29702009417668]}},{"type":"Feature","properties":{"id":258,"date":"1660-08-18","location":"Guzzano (contado)","weapon":"archibugio","conviction":"Y - pena vita ad Pietro e Giulio, carcerato Gemignano, absolvit Francesco","description":"Pasquale was in a field when Pietro and an unknown companion came out of the woods and shot him, then call him a razza di becco"},"geometry":{"type":"Point","coordinates":[10.646263,43.922307]}},{"type":"Feature","properties":{"id":219,"date":"1660-06-13","location":"Bello, luogo detto Piedriaga (contado)","weapon":"archibugio di schioppo","conviction":"Y - pena triremis perpetuus","description":"Francesco and Battista are both returning home with their beasts in tow, and block each other at an intersection; Francesco goes first and leaves Battista behind him, and is laughing at him and saying cruel things, and attacks him with an astola (stick) so Batt.a shoots at him with an archibus and hits him in the head."},"geometry":{"type":"Point","coordinates":[18.15949,40.36213]}},{"type":"Feature","properties":{"id":220,"date":"1660-07-27","location":"Castel Nuovo e Lisano, luogo detto Ca' de Brilli (contado)","weapon":"archibugio","conviction":"Y - Domenico in triremis perpetuus","description":"Domenico shot Filippo and killed him from wounds in various places"},"geometry":{"type":"Point","coordinates":[14.25273,40.83864]}},{"type":"Feature","properties":{"id":222,"date":"1660-07-22","location":"Casigno (contado)","weapon":"hoe","conviction":"Y - triremis perpetuus","description":"Pietro bashed DOmenico on the head with a hoe after they argued"},"geometry":{"type":"Point","coordinates":[11.07969,44.36031]}},{"type":"Feature","properties":{"id":224,"date":"1660-07-18","location":"Castellani di Capugnano (contado)","weapon":"archibugio","conviction":"Y - Francesco, Giovanni e Michele in pena vita; Antonio, Rainaldo e Pietro in triremis decem annis","description":"massaro is in church when he hears gunshots; he goes outside and finds Domenico and Domenico on the ground, the first dying and the second dead; Domenico Lanzoni says the Domenico Fabbri and Giovanni Balducelli came to words and then gun shots"},"geometry":{"type":"Point","coordinates":[10.95096,44.15757]}},{"type":"Feature","properties":{"id":225,"date":"1660-07-18","location":"Castellani di Capugnano (contado)","weapon":"archibugio","conviction":"Y - Francesco, Giovanni e Michele in pena vita; Antonio, Rainaldo e Pietro in triremis decem annis","description":"massaro is in church when he hears gunshots; he goes outside and finds Domenico and Domenico on the ground, the first dying and the second dead; Domenico Lanzoni says the Domenico Fabbri and Giovanni Balducelli came to words and then gun shots"},"geometry":{"type":"Point","coordinates":[10.95096,44.15757]}},{"type":"Feature","properties":{"id":226,"date":"1660-06-13","location":"Samoggia di Montagna (contado)","weapon":"archibugio","conviction":"Y- triremis perpetuus","description":"the two of them got into a gunfight"},"geometry":{"type":"Point","coordinates":[11.14616,44.56744]}},{"type":"Feature","properties":{"id":228,"date":"1660-07-20","location":"Bagneto (contado)","weapon":"archibugio","conviction":"Y - pena triremis perpetuus","description":"body found, on land belonging to the Cardinal Colonna, in a hemp field, by a girl while she was out picking leaves - she says he has a gunshot in his tummy - it's been there a while, the body inspection says it is \"covered in worms\""},"geometry":{"type":"Point","coordinates":[10.92611,44.63973]}},{"type":"Feature","properties":{"id":229,"date":"1660-05-13","location":"Budrio (contado)","weapon":"bastone","conviction":"Y - in pena triremis","description":"Bastiano and his brothers got into a fistfight with the killers, and lost - a brawl"},"geometry":{"type":"Point","coordinates":[11.536,44.5389]}},{"type":"Feature","properties":{"id":233,"date":"1660-07-03","location":"Bologna (citta) porta San Stefano","weapon":"archibugio","conviction":"Y - Gironimo in Pena vita","description":"cursor hears that a homicide has been committed and goes to check it out; I think there was a big gunfight?"},"geometry":{"type":"Point","coordinates":[11.2122,44.2905]}},{"type":"Feature","properties":{"id":234,"date":"1660-01-18","location":"Bologna (citta)","weapon":"sasso","conviction":"Y - exiliatis","description":"victim was \"giocando alli dati\" with a \"barone senza mestiere alcuna\", and won two bolognini from him, and when he asked for the money,  Margaritone bashed him on the head with a rock"},"geometry":{"type":"Point","coordinates":[11.2033,44.2941]}},{"type":"Feature","properties":{"id":235,"date":"1660-09-21","location":"Mirabello (contado)","weapon":"archibugio","conviction":"Y - omnes in pena vita","description":"Giorgio lures Cristoforo out of bed on the pretext of doing some smuggling with Andrea and Petronio - Cristoforo, being a secret agent of Count Rannini, goes along thinking he'll play a trick on them; when he gets to the clearing in the woods, they play a trick on him! Giorgio shoots him in the back and as he is running away for help, Andrea shoots him too"},"geometry":{"type":"Point","coordinates":[11.2758,44.495]}},{"type":"Feature","properties":{"id":237,"date":"1660-08-08","location":"Ceredolo (contado)","weapon":"archibugio e pugnale","conviction":"Y - Jacobus in Pena Vita","description":"Jacopo and Simone harass Antonio throughout the entire procession and want to duel him; Franc. Maria Ballarini was at the front of the Procession of the Madonna del Carmine,  holding one of the images, and Francesco Maria tries to reason with the jerks, when gunshots broke out and Antonio, his brother Francesco Maria, and one other were all hit. Antonio also received a stabwound to the chest, and Franc. Maria got pistolwhipped"},"geometry":{"type":"Point","coordinates":[10.3705,44.2409]}},{"type":"Feature","properties":{"id":240,"date":"1660-09-19","location":"Bologna (citta) contrada di Mirasole, Osteria delle due Colonne","weapon":"arme da punta, come cortello pugnale","conviction":"Y - in pena furcam","description":"one sbirro hears that someone has been mortally injured, another Sbirro encounters Bastiano, who is covered in blood and says someone tried to rob him, when the sbirro goes to his house he finds Francesco (I think) dying of multiple wounds administered by Bastiano"},"geometry":{"type":"Point","coordinates":[11.185725015095446,44.6391620797808]}},{"type":"Feature","properties":{"id":241,"date":"1660-07-24","location":"Bologna (citta) contrada delle Caprarie","weapon":"archibugio","conviction":"Y - in pena furcam et confiscationis boni","description":"Capitano hears that one of his sbirri has been shot and killed by another of his sbirri; the botteghiere who saw it says they were arguing because Andrea wanted to be left alone to go somewhere, and Giuseffe was laughing at him and followed him"},"geometry":{"type":"Point","coordinates":[11.346139726956729,44.493941301639246]}},{"type":"Feature","properties":{"id":243,"date":"1660-07-23","location":"Bologna (citta) mercato di Mezzo","weapon":"spada pugnale","conviction":"Y - Andrea in pena vita et confisationis bonis; Giovan Battista carcerato","description":"Santi says that Andrea is a wimp who won't go out, he'd rather stay home with his daddy, so Andrea stabs him in the back - says Andrea's brother"},"geometry":{"type":"Point","coordinates":[11.344869555791933,44.4935929348505]}},{"type":"Feature","properties":{"id":244,"date":"1660-07-25","location":"Bologna (citta) mercato","weapon":"punta pugnale","conviction":"Y - pena furcam et confiscationis boni","description":"two friends joking around, GIuseffe tosses a rock at GIo Batt and misses, they start to wrestle and punch each other,  and Gio Batt.a stabs  GIuseffe four times"},"geometry":{"type":"Point","coordinates":[11.344869555725474,44.4934857483314]}},{"type":"Feature","properties":{"id":245,"date":"1660-08-14","location":"Luminasio (contado)","weapon":"archibugio","conviction":"Y - in pena vita","description":"Sabbatino goes to Domenico's house and says \"let's go do some work\", so they go out in the field of Giacomo Boschi, and Domenico climbs a tree to gather \"lugliatica\" and while he is up there Sabbatino shoots him and he dies, Sabbatino goes home and says to his mom \"O my god mom, I killed DOmenico  Palnetta"},"geometry":{"type":"Point","coordinates":[11.190268012843864,44.3597991170573]}},{"type":"Feature","properties":{"id":247,"date":"1660-03-19","location":"Bologna (citta)","weapon":"punta pugnale","conviction":"Y - pena vita et ultima supplice","description":"victim walks out of church into a swordfight between noblemen's socii; this is a brawl!"},"geometry":{"type":"Point","coordinates":[11.3022577911526,44.5213347583258]}},{"type":"Feature","properties":{"id":249,"date":"1660-12-21","location":"Sanguinetta (contado)","weapon":"archibugio","conviction":"Y - in pena triremis perpetuus","description":"I think he shot at some Sbirri and they killed him? Agostino's neighbour told the sbirri that Agostino stole his pistol. They shot him while he was trying to escape arrest"},"geometry":{"type":"Point","coordinates":[11.150606531628814,44.3215648198553]}},{"type":"Feature","properties":{"id":250,"date":"1660-04-21","location":"Bologna (citta)","weapon":"contendente come bastone","conviction":"Y - Giacomo pena vita, Antonio triremis decennius","description":"the two killers tried to take his guitar and killed him to boot - he lives a while"},"geometry":{"type":"Point","coordinates":[11.352292370302251,44.5200535929066]}},{"type":"Feature","properties":{"id":252,"date":"1660-12-17","location":"Bologna (Citta)","weapon":"stoccata pugnale","conviction":"Y- triremis perpetuus","description":"Sabatino and a \"friend\" (whose name he doesn't know) were out walking when all of a sudden Sabatino felt a stab in his back and turned around to see Antonio"},"geometry":{"type":"Point","coordinates":[11.352292370302251,44.5200535929066]}},{"type":"Feature","properties":{"id":253,"date":"1660-05-06","location":"Bologna (citta), contrada delle Lame","weapon":"archibugio","conviction":"Y - giacopo in vita, I think","description":"Capitano hears from the neighbourhood that Fabiano shot Pietro, goes and finds the dying man who can't speak and then dies, goes to look for Fabiano and arrests his wife and a meretrice who was in his house"},"geometry":{"type":"Point","coordinates":[11.1959,44.2946]}},{"type":"Feature","properties":{"id":255,"date":"1660-10-20","location":"Bologna (citta) contrada di Galiera, portico delli preti della Madonna di Galiera","weapon":"archibugio","conviction":"N- no one charged, I think. A mystery.","description":"Alfonso on his way home at night when he is shot"},"geometry":{"type":"Point","coordinates":[11.342898,44.493782]}},{"type":"Feature","properties":{"id":256,"date":"1660-03-10","location":"Bologna (citta)","weapon":"fiascolio?","conviction":"N","description":"victim and husband argue after lunch because she thinks he is going out to get hookers; husband beats her with a fiasco and before he can hit her again she runs to her Neighbour Giulia Antonia's house"},"geometry":{"type":"Point","coordinates":[11.352292370302251,44.5200535929066]}},{"type":"Feature","properties":{"id":259,"date":"1660-11-01","location":"Bombiano (contado)","weapon":"archibugio","conviction":"Y - fratelli in Pena Vita, father dies in prison?","description":"Alfiere is going in to hear mass, and Pietro walks up behind him, puts an archibugio right to his back, and shoots him"},"geometry":{"type":"Point","coordinates":[10.974631,44.21392]}},{"type":"Feature","properties":{"id":333,"date":"1660-01-18","location":"Gesso (contado)","weapon":"archibugio","conviction":"Y - Domenico pena furcam, Andrea et Giuseffe triremes septennius","description":"Francesco is leaving Vespers and the Rubini boys follow him home; he turns around and says, \"Andrea, come here so I can have a word, I want to ask if you are my friend or not\" but before he can ask Andrea goes at him with a scythe, the other Rubini come up and Domenico caps him with an archibugio. he manages to give a statement to the massaro before dying"},"geometry":{"type":"Point","coordinates":[10.529112648100297,44.6374447452429]}},{"type":"Feature","properties":{"id":335,"date":"1660-06-21","location":"Liano (contado) luogo detto Magrone","weapon":"cortello - fourteen wounds pugnale","conviction":"Y - pena vita","description":"victim shot outside the osteria owned by the killer"},"geometry":{"type":"Point","coordinates":[11.546889333841154,44.3790406812921]}},{"type":"Feature","properties":{"id":336,"date":"1660-09-20","location":"Samoggia di Montagna (contado)","weapon":"archibugio","conviction":"Y - ultima supplice","description":"Antonia asks Pietro if he'd be ok with her moving to her folks' house in her village, and they argued, and he shot her"},"geometry":{"type":"Point","coordinates":[11.257107607489676,44.6950882960938]}},{"type":"Feature","properties":{"id":343,"date":"1660-06-27","location":"Zappolino (contado)","weapon":"archibugio","conviction":"Y - pena vita","description":"This busta starts with a denunciation of a gang rape that Giacomo Biagini took part in on 25th June before a second denunciation of the 27th June, where he went to Francesco Colina's house, called him out and began to fight him, and shot him, wounding him in the stomach, arm and head, which killed him"},"geometry":{"type":"Point","coordinates":[11.10984751339729,44.4351452336248]}},{"type":"Feature","properties":{"id":344,"date":"1660-01-30","location":"Scanello et Briano (contado)","weapon":"archibugio","conviction":"Y - pena vita","description":"Anibale is watching some friends play dice when Dionisio and Giulio arrive, and one of them pulls out a gun to shoot ANibale in the head but the dice-players stop him, then the other pulls out his gun, shoots Anibale in the arm and pistol whips him across the head"},"geometry":{"type":"Point","coordinates":[11.351505628239028,44.2702334658668]}},{"type":"Feature","properties":{"id":345,"date":"1660-04-16","location":"Bazzano (contado)","weapon":"archibugio","conviction":"Y - omnes pena vita","description":"Ambrosio Suzzi (and I assume Domenico) are in the market at Bazzano, and they get to the house of the Bianconi; there, Alessandro Righi warns them not to go any further because he fears some ill for them; and Ambrosio says \"I want to follow my way\" and goes past about five steps before he is surrounded by ~16 archibugieri who shout at him to stop and start firing, and Domenico is hit in the chest and he dies immediately"},"geometry":{"type":"Point","coordinates":[11.079219411659126,44.5038245803837]}},{"type":"Feature","properties":{"id":346,"date":"1640-04-17","location":"S. Vincenzo (contado)","weapon":"pugnale","conviction":"Y - triremis perpetuus","description":"two brothers began arguing; words became blows and blows became stabs; Battista ended up stabbing Domenico repeatedly (three wounds)"},"geometry":{"type":"Point","coordinates":[11.440877292835522,44.7377791679979]}},{"type":"Feature","properties":{"id":352,"date":"1640-09-27","location":"Galiera (contado)","weapon":"pugnale","conviction":"Y - in pena furcam","description":"Massaro is in vespers when he hears there is a dead body in the field; he rings the bell etc etc. Nine days earlier the victim's wife had some kind of encounter with the slayers, where I think they shot her turkey??"},"geometry":{"type":"Point","coordinates":[11.392428063703903,44.751259252955]}},{"type":"Feature","properties":{"id":354,"date":"1640-10-09","location":"Medicina (contado)","weapon":"pugnale","conviction":"Y - fuit condannatus","description":"Giacomo Toschi's son, Pier Paolo, is friends with Francesco Donati; they share a public woman. The two resolve to run away with her into the countryside, and Pier Paolo steals his father's money and some shirts to prepare for this, bringing the loot to the lady's house. Giacomo learns of the theft and Pier Paolo returns the money, and Giacomo sends his son-in-law  Gio. Maria to the house to retrieve the shirts; Francesco is there, and when the woman denies knowing anything, Francesco grabs his knife and stabs Gio Maria"},"geometry":{"type":"Point","coordinates":[11.64043735404894,44.4775222762096]}},{"type":"Feature","properties":{"id":356,"date":"1640-11-06","location":"S Agostino di Sotto (contado)","weapon":"ronca (some kind of farm implement? like a shovel or a ho? a pruning hook?) pugnale","conviction":"Y - pena vita","description":"Cesare and Giovanni Carlani are turning the wheel in the forge, when in walks Giovanni Borghi with a ronca and bashes Cesare over the head; Cesare dies promptly"},"geometry":{"type":"Point","coordinates":[11.366664647553536,44.8022531925568]}},{"type":"Feature","properties":{"id":358,"date":"1640-08-06","location":"Monte San Pietro (contado)","weapon":"archibugio","conviction":"Y - bandito capitalmente","description":"Marc'Antonio was going to his friend Salvadore's house when he passed Giovan Antonio, who was sitting on a staircase in the courtyard of the Bozzali; Marc'Antonio said \"good evenin,\" and put his hand on his archebus and said \"keep away from me (venite alla larga)\", Giovan Antonio took off running towards the Cantonata, and Marc'Antonio chased him and lost him, and heard nothing until M.A. was shot in the shoulder"},"geometry":{"type":"Point","coordinates":[11.137965138692788,44.4399323464065]}},{"type":"Feature","properties":{"id":362,"date":"1640-11-04","location":"C.S. Pietro (contado)","weapon":"archibugio","conviction":"Y - pena furcam Stephano e Giovanni; Domenico Triremis","description":"Carlo was woken up by someone calling for him to come outside, and when he went to the window to see who it was, someone shot him in the face"},"geometry":{"type":"Point","coordinates":[11.298243101206245,44.4903894953082]}},{"type":"Feature","properties":{"id":363,"date":"1640-07-25","location":"Monte Armato (contado)","weapon":"archibugio","conviction":"N","description":"son finds Domenico dead and cold in the street"},"geometry":{"type":"Point","coordinates":[11.42161488172876,44.3663836785833]}},{"type":"Feature","properties":{"id":364,"date":"1640-06-23","location":"Castione / Ripoli (contado)","weapon":"? caduta","conviction":"N","description":"MAssaro of Ripoli stops some veturali who are passing through and find in the house they're staying an injured man; his son comes and takes him home to Castione, where he dies"},"geometry":{"type":"Point","coordinates":[11.195401262110751,44.2270622774824]}},{"type":"Feature","properties":{"id":365,"date":"1640-09-12","location":"Budrio (contado)","weapon":"none","conviction":"N","description":"a hat and  a falandiano found near a well; the good men of town lower a hook and pull up the corpse of Giovan Battista Martelli"},"geometry":{"type":"Point","coordinates":[11.530165992328865,44.5371049784427]}},{"type":"Feature","properties":{"id":370,"date":"1640-03-18","location":"Gaggio (contado)","weapon":"pugnale di stillo o triangolo","conviction":"N","description":"body found on the bank of the river - the ferryman says earlier the guy wanted to cross the river with a friend on his way to Modena, and then they went into a casello, and the boatman heard an archebus, and then saw the friend on top of the dead guy stabbing him, and then he took off"},"geometry":{"type":"Point","coordinates":[10.932125232294949,44.197647677363]}},{"type":"Feature","properties":{"id":371,"date":"1640-02-25","location":"Castel Bolognese (contado)","weapon":"archibugio","conviction":"Y - Vincenzo in pena vita, Cap.o Philippo in pena vita; altri absolvit","description":"sounds like a firefight; two dead immediately, and then when they are trying to move Don Antonio (wounded) from somewhere back to his house,  they shoot him good and dead, then they escaped"},"geometry":{"type":"Point","coordinates":[11.801766608098731,44.3207015543291]}},{"type":"Feature","properties":{"id":373,"date":"1640-02-25","location":"Castel Bolognese (contado)","weapon":"archibugio","conviction":"Y - Vincenzo in pena vita, Cap.o Philippo in pena vita; altri absolvit","description":"sounds like a firefight; two dead immediately, and then when they are trying to move Don Antonio (wounded) from somewhere back to his house,  they shoot him good and dead, then they escaped"},"geometry":{"type":"Point","coordinates":[11.801766608098731,44.3207015543291]}}]}